cod_divipola,municipio,departamento,tipo,lon,lat
05001,MEDELLÍN,ANTIOQUIA,Municipio,-75.581775,6.246631
05002,ABEJORRAL,ANTIOQUIA,Municipio,-75.428739,5.789315
05004,ABRIAQUÍ,ANTIOQUIA,Municipio,-76.064304,6.632282
05021,ALEJANDRÍA,ANTIOQUIA,Municipio,-75.141346,6.376061
05030,AMAGÁ,ANTIOQUIA,Municipio,-75.702188,6.038708
05031,AMALFI,ANTIOQUIA,Municipio,-75.077501,6.909655
05034,ANDES,ANTIOQUIA,Municipio,-75.878828,5.657194
05036,ANGELÓPOLIS,ANTIOQUIA,Municipio,-75.711389,6.109719
05038,ANGOSTURA,ANTIOQUIA,Municipio,-75.335116,6.885175
05040,ANORÍ,ANTIOQUIA,Municipio,-75.148355,7.074703
05042,SANTA FÉ DE ANTIOQUIA,ANTIOQUIA,Municipio,-75.826648,6.556484
05044,ANZÁ,ANTIOQUIA,Municipio,-75.854442,6.302641
05045,APARTADÓ,ANTIOQUIA,Municipio,-76.625279,7.882968
05051,ARBOLETES,ANTIOQUIA,Municipio,-76.426708,8.849317
05055,ARGELIA,ANTIOQUIA,Municipio,-75.14107,5.731474
05059,ARMENIA,ANTIOQUIA,Municipio,-75.786647,6.155667
05079,BARBOSA,ANTIOQUIA,Municipio,-75.331627,6.439195
05086,BELMIRA,ANTIOQUIA,Municipio,-75.667779,6.606319
05088,BELLO,ANTIOQUIA,Municipio,-75.555245,6.333587
05091,BETANIA,ANTIOQUIA,Municipio,-75.97679,5.74615
05093,BETULIA,ANTIOQUIA,Municipio,-75.984452,6.115208
05101,CIUDAD BOLÍVAR,ANTIOQUIA,Municipio,-76.021509,5.850273
05107,BRICEÑO,ANTIOQUIA,Municipio,-75.55036,7.112803
05113,BURITICÁ,ANTIOQUIA,Municipio,-75.907,6.720759
05120,CÁCERES,ANTIOQUIA,Municipio,-75.35205,7.578366
05125,CAICEDO,ANTIOQUIA,Municipio,-75.98293,6.405607
05129,CALDAS,ANTIOQUIA,Municipio,-75.633673,6.091077
05134,CAMPAMENTO,ANTIOQUIA,Municipio,-75.298091,6.979771
05138,CAÑASGORDAS,ANTIOQUIA,Municipio,-76.028228,6.753859
05142,CARACOLÍ,ANTIOQUIA,Municipio,-74.757421,6.409829
05145,CARAMANTA,ANTIOQUIA,Municipio,-75.643868,5.54853
05147,CAREPA,ANTIOQUIA,Municipio,-76.652652,7.755148
05148,EL CARMEN DE VIBORAL,ANTIOQUIA,Municipio,-75.333901,6.082885
05150,CAROLINA,ANTIOQUIA,Municipio,-75.283192,6.725995
05154,CAUCASIA,ANTIOQUIA,Municipio,-75.197996,7.977278
05172,CHIGORODÓ,ANTIOQUIA,Municipio,-76.681531,7.666147
05190,CISNEROS,ANTIOQUIA,Municipio,-75.087047,6.537829
05197,COCORNÁ,ANTIOQUIA,Municipio,-75.185483,6.058295
05206,CONCEPCIÓN,ANTIOQUIA,Municipio,-75.257587,6.394348
05209,CONCORDIA,ANTIOQUIA,Municipio,-75.908448,6.045738
05212,COPACABANA,ANTIOQUIA,Municipio,-75.509384,6.348557
05234,DABEIBA,ANTIOQUIA,Municipio,-76.261614,6.998112
05237,DONMATÍAS,ANTIOQUIA,Municipio,-75.39263,6.485603
05240,EBÉJICO,ANTIOQUIA,Municipio,-75.766413,6.325615
05250,EL BAGRE,ANTIOQUIA,Municipio,-74.799097,7.5975
05264,ENTRERRÍOS,ANTIOQUIA,Municipio,-75.517685,6.566273
05266,ENVIGADO,ANTIOQUIA,Municipio,-75.582192,6.166695
05282,FREDONIA,ANTIOQUIA,Municipio,-75.675072,5.928039
05284,FRONTINO,ANTIOQUIA,Municipio,-76.130765,6.776066
05306,GIRALDO,ANTIOQUIA,Municipio,-75.952158,6.680808
05308,GIRARDOTA,ANTIOQUIA,Municipio,-75.444238,6.379472
05310,GÓMEZ PLATA,ANTIOQUIA,Municipio,-75.220018,6.683269
05313,GRANADA,ANTIOQUIA,Municipio,-75.184446,6.142892
05315,GUADALUPE,ANTIOQUIA,Municipio,-75.239862,6.815069
05318,GUARNE,ANTIOQUIA,Municipio,-75.441612,6.27787
05321,GUATAPÉ,ANTIOQUIA,Municipio,-75.160041,6.232461
05347,HELICONIA,ANTIOQUIA,Municipio,-75.734322,6.206757
05353,HISPANIA,ANTIOQUIA,Municipio,-75.906587,5.799461
05360,ITAGÜÍ,ANTIOQUIA,Municipio,-75.612056,6.175079
05361,ITUANGO,ANTIOQUIA,Municipio,-75.764673,7.171629
05364,JARDÍN,ANTIOQUIA,Municipio,-75.818982,5.597542
05368,JERICÓ,ANTIOQUIA,Municipio,-75.785499,5.789748
05376,LA CEJA,ANTIOQUIA,Municipio,-75.429433,6.028062
05380,LA ESTRELLA,ANTIOQUIA,Municipio,-75.637708,6.145238
05390,LA PINTADA,ANTIOQUIA,Municipio,-75.60781,5.743808
05400,LA UNIÓN,ANTIOQUIA,Municipio,-75.360874,5.973845
05411,LIBORINA,ANTIOQUIA,Municipio,-75.812838,6.677316
05425,MACEO,ANTIOQUIA,Municipio,-74.78716,6.552116
05440,MARINILLA,ANTIOQUIA,Municipio,-75.339345,6.173995
05467,MONTEBELLO,ANTIOQUIA,Municipio,-75.523455,5.946313
05475,MURINDÓ,ANTIOQUIA,Municipio,-76.817485,6.97771
05480,MUTATÁ,ANTIOQUIA,Municipio,-76.435875,7.242875
05483,NARIÑO,ANTIOQUIA,Municipio,-75.176262,5.610777
05490,NECOCLÍ,ANTIOQUIA,Municipio,-76.787271,8.434526
05495,NECHÍ,ANTIOQUIA,Municipio,-74.77647,8.094129
05501,OLAYA,ANTIOQUIA,Municipio,-75.811773,6.626492
05541,PEÑOL,ANTIOQUIA,Municipio,-75.242693,6.219349
05543,PEQUE,ANTIOQUIA,Municipio,-75.910357,7.021029
05576,PUEBLORRICO,ANTIOQUIA,Municipio,-75.839903,5.79158
05579,PUERTO BERRÍO,ANTIOQUIA,Municipio,-74.410016,6.487028
05585,PUERTO NARE,ANTIOQUIA,Municipio,-74.583012,6.186025
05591,PUERTO TRIUNFO,ANTIOQUIA,Municipio,-74.64119,5.871318
05604,REMEDIOS,ANTIOQUIA,Municipio,-74.698135,7.029424
05607,RETIRO,ANTIOQUIA,Municipio,-75.501301,6.062454
05615,RIONEGRO,ANTIOQUIA,Municipio,-75.377316,6.147148
05628,SABANALARGA,ANTIOQUIA,Municipio,-75.816645,6.850028
05631,SABANETA,ANTIOQUIA,Municipio,-75.615479,6.149903
05642,SALGAR,ANTIOQUIA,Municipio,-75.976807,5.964198
05647,SAN ANDRÉS DE CUERQUÍA,ANTIOQUIA,Municipio,-75.674564,6.916676
05649,SAN CARLOS,ANTIOQUIA,Municipio,-74.988097,6.187746
05652,SAN FRANCISCO,ANTIOQUIA,Municipio,-75.101562,5.963476
05656,SAN JERÓNIMO,ANTIOQUIA,Municipio,-75.726975,6.44809
05658,SAN JOSÉ DE LA MONTAÑA,ANTIOQUIA,Municipio,-75.683352,6.85009
05659,SAN JUAN DE URABÁ,ANTIOQUIA,Municipio,-76.52857,8.758964
05660,SAN LUIS,ANTIOQUIA,Municipio,-74.993619,6.043017
05664,SAN PEDRO DE LOS MILAGROS,ANTIOQUIA,Municipio,-75.556743,6.46012
05665,SAN PEDRO DE URABÁ,ANTIOQUIA,Municipio,-76.380567,8.276884
05667,SAN RAFAEL,ANTIOQUIA,Municipio,-75.02849,6.293759
05670,SAN ROQUE,ANTIOQUIA,Municipio,-75.019109,6.485939
05674,SAN VICENTE FERRER,ANTIOQUIA,Municipio,-75.332616,6.282164
05679,SANTA BÁRBARA,ANTIOQUIA,Municipio,-75.567351,5.875527
05686,SANTA ROSA DE OSOS,ANTIOQUIA,Municipio,-75.460723,6.643366
05690,SANTO DOMINGO,ANTIOQUIA,Municipio,-75.164903,6.473032
05697,EL SANTUARIO,ANTIOQUIA,Municipio,-75.265465,6.136871
05736,SEGOVIA,ANTIOQUIA,Municipio,-74.701596,7.079648
05756,SONSÓN,ANTIOQUIA,Municipio,-75.309596,5.714851
05761,SOPETRÁN,ANTIOQUIA,Municipio,-75.747378,6.500745
05789,TÁMESIS,ANTIOQUIA,Municipio,-75.714429,5.664645
05790,TARAZÁ,ANTIOQUIA,Municipio,-75.401407,7.580127
05792,TARSO,ANTIOQUIA,Municipio,-75.822956,5.864542
05809,TITIRIBÍ,ANTIOQUIA,Municipio,-75.791887,6.062391
05819,TOLEDO,ANTIOQUIA,Municipio,-75.692281,7.010328
05837,TURBO,ANTIOQUIA,Municipio,-76.728858,8.089929
05842,URAMITA,ANTIOQUIA,Municipio,-76.173284,6.898393
05847,URRAO,ANTIOQUIA,Municipio,-76.133951,6.317343
05854,VALDIVIA,ANTIOQUIA,Municipio,-75.439274,7.1652
05856,VALPARAÍSO,ANTIOQUIA,Municipio,-75.624452,5.614555
05858,VEGACHÍ,ANTIOQUIA,Municipio,-74.798714,6.773525
05861,VENECIA,ANTIOQUIA,Municipio,-75.735544,5.964693
05873,VIGÍA DEL FUERTE,ANTIOQUIA,Municipio,-76.896004,6.588164
05885,YALÍ,ANTIOQUIA,Municipio,-74.840059,6.676554
05887,YARUMAL,ANTIOQUIA,Municipio,-75.418828,6.963832
05890,YOLOMBÓ,ANTIOQUIA,Municipio,-75.013385,6.594511
05893,YONDÓ,ANTIOQUIA,Municipio,-73.912445,7.00396
05895,ZARAGOZA,ANTIOQUIA,Municipio,-74.867075,7.488583
08001,BARRANQUILLA,ATLÁNTICO,Municipio,-74.815546,10.977961
08078,BARANOA,ATLÁNTICO,Municipio,-74.916077,10.79445
08137,CAMPO DE LA CRUZ,ATLÁNTICO,Municipio,-74.880847,10.378291
08141,CANDELARIA,ATLÁNTICO,Municipio,-74.879717,10.461903
08296,GALAPA,ATLÁNTICO,Municipio,-74.870385,10.919033
08372,JUAN DE ACOSTA,ATLÁNTICO,Municipio,-75.041032,10.83254
08421,LURUACO,ATLÁNTICO,Municipio,-75.14199,10.610491
08433,MALAMBO,ATLÁNTICO,Municipio,-74.776923,10.857086
08436,MANATÍ,ATLÁNTICO,Municipio,-74.956867,10.449089
08520,PALMAR DE VARELA,ATLÁNTICO,Municipio,-74.754765,10.738591
08549,PIOJÓ,ATLÁNTICO,Municipio,-75.107592,10.749216
08558,POLONUEVO,ATLÁNTICO,Municipio,-74.852981,10.777363
08560,PONEDERA,ATLÁNTICO,Municipio,-74.753885,10.641779
08573,PUERTO COLOMBIA,ATLÁNTICO,Municipio,-74.888627,11.015322
08606,REPELÓN,ATLÁNTICO,Municipio,-75.125534,10.493357
08634,SABANAGRANDE,ATLÁNTICO,Municipio,-74.759496,10.792453
08638,SABANALARGA,ATLÁNTICO,Municipio,-74.921256,10.632091
08675,SANTA LUCÍA,ATLÁNTICO,Municipio,-74.959204,10.324303
08685,SANTO TOMÁS,ATLÁNTICO,Municipio,-74.757859,10.758735
08758,SOLEDAD,ATLÁNTICO,Municipio,-74.786054,10.909921
08770,SUAN,ATLÁNTICO,Municipio,-74.881687,10.335432
08832,TUBARÁ,ATLÁNTICO,Municipio,-74.978704,10.873586
08849,USIACURÍ,ATLÁNTICO,Municipio,-74.976985,10.74298
11001,"BOGOTÁ, D.C.","BOGOTÁ, D.C.",Municipio,-74.106992,4.649251
13001,CARTAGENA DE INDIAS,BOLÍVAR,Municipio,-75.496269,10.385126
13006,ACHÍ,BOLÍVAR,Municipio,-74.557676,8.570107
13030,ALTOS DEL ROSARIO,BOLÍVAR,Municipio,-74.164905,8.791865
13042,ARENAL,BOLÍVAR,Municipio,-73.941099,8.458865
13052,ARJONA,BOLÍVAR,Municipio,-75.344332,10.25666
13062,ARROYOHONDO,BOLÍVAR,Municipio,-75.019215,10.250075
13074,BARRANCO DE LOBA,BOLÍVAR,Municipio,-74.104391,8.947787
13140,CALAMAR,BOLÍVAR,Municipio,-74.916144,10.250431
13160,CANTAGALLO,BOLÍVAR,Municipio,-73.914605,7.378678
13188,CICUCO,BOLÍVAR,Municipio,-74.645981,9.274281
13212,CÓRDOBA,BOLÍVAR,Municipio,-74.827399,9.586942
13222,CLEMENCIA,BOLÍVAR,Municipio,-75.328469,10.567452
13244,EL CARMEN DE BOLÍVAR,BOLÍVAR,Municipio,-75.121178,9.718653
13248,EL GUAMO,BOLÍVAR,Municipio,-74.976084,10.030958
13268,EL PEÑÓN,BOLÍVAR,Municipio,-73.949274,8.988271
13300,HATILLO DE LOBA,BOLÍVAR,Municipio,-74.077912,8.956014
13430,MAGANGUÉ,BOLÍVAR,Municipio,-74.766742,9.263799
13433,MAHATES,BOLÍVAR,Municipio,-75.191643,10.233285
13440,MARGARITA,BOLÍVAR,Municipio,-74.285137,9.15784
13442,MARÍA LA BAJA,BOLÍVAR,Municipio,-75.300516,9.982402
13458,MONTECRISTO,BOLÍVAR,Municipio,-74.471176,8.297234
13468,SANTA CRUZ DE MOMPOX,BOLÍVAR,Municipio,-74.42818,9.244241
13473,MORALES,BOLÍVAR,Municipio,-73.868172,8.276558
13490,NOROSÍ,BOLÍVAR,Municipio,-74.038003,8.526259
13549,PINILLOS,BOLÍVAR,Municipio,-74.462279,8.914947
13580,REGIDOR,BOLÍVAR,Municipio,-73.821638,8.666258
13600,RÍO VIEJO,BOLÍVAR,Municipio,-73.840466,8.58795
13620,SAN CRISTÓBAL,BOLÍVAR,Municipio,-75.065076,10.392836
13647,SAN ESTANISLAO,BOLÍVAR,Municipio,-75.153101,10.398602
13650,SAN FERNANDO,BOLÍVAR,Municipio,-74.323811,9.214183
13654,SAN JACINTO,BOLÍVAR,Municipio,-75.12105,9.830275
13655,SAN JACINTO DEL CAUCA,BOLÍVAR,Municipio,-74.721156,8.25158
13657,SAN JUAN NEPOMUCENO,BOLÍVAR,Municipio,-75.081761,9.953751
13667,SAN MARTÍN DE LOBA,BOLÍVAR,Municipio,-74.039134,8.937485
13670,SAN PABLO,BOLÍVAR,Municipio,-73.924602,7.476747
13673,SANTA CATALINA,BOLÍVAR,Municipio,-75.287855,10.605294
13683,SANTA ROSA,BOLÍVAR,Municipio,-75.369824,10.444396
13688,SANTA ROSA DEL SUR,BOLÍVAR,Municipio,-74.052243,7.963938
13744,SIMITÍ,BOLÍVAR,Municipio,-73.947264,7.953916
13760,SOPLAVIENTO,BOLÍVAR,Municipio,-75.136404,10.38839
13780,TALAIGUA NUEVO,BOLÍVAR,Municipio,-74.567479,9.30403
13810,TIQUISIO,BOLÍVAR,Municipio,-74.262922,8.558666
13836,TURBACO,BOLÍVAR,Municipio,-75.427249,10.348316
13838,TURBANÁ,BOLÍVAR,Municipio,-75.44265,10.274585
13873,VILLANUEVA,BOLÍVAR,Municipio,-75.275613,10.444089
13894,ZAMBRANO,BOLÍVAR,Municipio,-74.817879,9.746306
15001,TUNJA,BOYACÁ,Municipio,-73.355539,5.53988
15022,ALMEIDA,BOYACÁ,Municipio,-73.378933,4.970857
15047,AQUITANIA,BOYACÁ,Municipio,-72.88399,5.518602
15051,ARCABUCO,BOYACÁ,Municipio,-73.437503,5.755673
15087,BELÉN,BOYACÁ,Municipio,-72.911641,5.98923
15090,BERBEO,BOYACÁ,Municipio,-73.12721,5.227451
15092,BETÉITIVA,BOYACÁ,Municipio,-72.809014,5.909978
15097,BOAVITA,BOYACÁ,Municipio,-72.584905,6.330703
15104,BOYACÁ,BOYACÁ,Municipio,-73.361945,5.454578
15106,BRICEÑO,BOYACÁ,Municipio,-73.92326,5.690879
15109,BUENAVISTA,BOYACÁ,Municipio,-73.94217,5.512594
15114,BUSBANZÁ,BOYACÁ,Municipio,-72.884158,5.831393
15131,CALDAS,BOYACÁ,Municipio,-73.865553,5.55458
15135,CAMPOHERMOSO,BOYACÁ,Municipio,-73.104173,5.031676
15162,CERINZA,BOYACÁ,Municipio,-72.947918,5.955939
15172,CHINAVITA,BOYACÁ,Municipio,-73.368476,5.167486
15176,CHIQUINQUIRÁ,BOYACÁ,Municipio,-73.818745,5.61379
15180,CHISCAS,BOYACÁ,Municipio,-72.500957,6.553136
15183,CHITA,BOYACÁ,Municipio,-72.471892,6.187083
15185,CHITARAQUE,BOYACÁ,Municipio,-73.4471,6.027425
15187,CHIVATÁ,BOYACÁ,Municipio,-73.282529,5.558949
15189,CIÉNEGA,BOYACÁ,Municipio,-73.296049,5.408694
15204,CÓMBITA,BOYACÁ,Municipio,-73.323957,5.634545
15212,COPER,BOYACÁ,Municipio,-74.045636,5.475074
15215,CORRALES,BOYACÁ,Municipio,-72.844795,5.828064
15218,COVARACHÍA,BOYACÁ,Municipio,-72.738978,6.500177
15223,CUBARÁ,BOYACÁ,Municipio,-72.107939,6.997275
15224,CUCAITA,BOYACÁ,Municipio,-73.454338,5.544452
15226,CUÍTIVA,BOYACÁ,Municipio,-72.965923,5.580367
15232,CHÍQUIZA,BOYACÁ,Municipio,-73.449463,5.639834
15236,CHIVOR,BOYACÁ,Municipio,-73.368398,4.888173
15238,DUITAMA,BOYACÁ,Municipio,-73.03063,5.822964
15244,EL COCUY,BOYACÁ,Municipio,-72.444537,6.407738
15248,EL ESPINO,BOYACÁ,Municipio,-72.497007,6.483027
15272,FIRAVITOBA,BOYACÁ,Municipio,-72.993392,5.668885
15276,FLORESTA,BOYACÁ,Municipio,-72.918111,5.859519
15293,GACHANTIVÁ,BOYACÁ,Municipio,-73.549092,5.751891
15296,GÁMEZA,BOYACÁ,Municipio,-72.80553,5.802333
15299,GARAGOA,BOYACÁ,Municipio,-73.364413,5.083234
15317,GUACAMAYAS,BOYACÁ,Municipio,-72.500812,6.459667
15322,GUATEQUE,BOYACÁ,Municipio,-73.471207,5.007321
15325,GUAYATÁ,BOYACÁ,Municipio,-73.489698,4.967122
15332,GÜICÁN DE LA SIERRA,BOYACÁ,Municipio,-72.411763,6.462864
15362,IZA,BOYACÁ,Municipio,-72.979559,5.611577
15367,JENESANO,BOYACÁ,Municipio,-73.363738,5.385813
15368,JERICÓ,BOYACÁ,Municipio,-72.571122,6.145735
15377,LABRANZAGRANDE,BOYACÁ,Municipio,-72.57777,5.562687
15380,LA CAPILLA,BOYACÁ,Municipio,-73.444347,5.095687
15401,LA VICTORIA,BOYACÁ,Municipio,-74.234393,5.523792
15403,LA UVITA,BOYACÁ,Municipio,-72.559982,6.31616
15407,VILLA DE LEYVA,BOYACÁ,Municipio,-73.524948,5.632455
15425,MACANAL,BOYACÁ,Municipio,-73.319593,4.972464
15442,MARIPÍ,BOYACÁ,Municipio,-74.00405,5.550091
15455,MIRAFLORES,BOYACÁ,Municipio,-73.14563,5.196515
15464,MONGUA,BOYACÁ,Municipio,-72.79809,5.754242
15466,MONGUÍ,BOYACÁ,Municipio,-72.849292,5.723486
15469,MONIQUIRÁ,BOYACÁ,Municipio,-73.573374,5.876331
15476,MOTAVITA,BOYACÁ,Municipio,-73.367841,5.5777
15480,MUZO,BOYACÁ,Municipio,-74.10269,5.532758
15491,NOBSA,BOYACÁ,Municipio,-72.937042,5.768046
15494,NUEVO COLÓN,BOYACÁ,Municipio,-73.456759,5.355317
15500,OICATÁ,BOYACÁ,Municipio,-73.308399,5.595235
15507,OTANCHE,BOYACÁ,Municipio,-74.180965,5.657536
15511,PACHAVITA,BOYACÁ,Municipio,-73.396953,5.140065
15514,PÁEZ,BOYACÁ,Municipio,-73.052737,5.097319
15516,PAIPA,BOYACÁ,Municipio,-73.11782,5.779894
15518,PAJARITO,BOYACÁ,Municipio,-72.703231,5.293783
15522,PANQUEBA,BOYACÁ,Municipio,-72.459424,6.443416
15531,PAUNA,BOYACÁ,Municipio,-73.978449,5.656323
15533,PAYA,BOYACÁ,Municipio,-72.423775,5.625699
15537,PAZ DE RÍO,BOYACÁ,Municipio,-72.749137,5.987645
15542,PESCA,BOYACÁ,Municipio,-73.050872,5.558808
15550,PISBA,BOYACÁ,Municipio,-72.486023,5.72141
15572,PUERTO BOYACÁ,BOYACÁ,Municipio,-74.587782,5.976646
15580,QUÍPAMA,BOYACÁ,Municipio,-74.180033,5.52055
15599,RAMIRIQUÍ,BOYACÁ,Municipio,-73.334839,5.400303
15600,RÁQUIRA,BOYACÁ,Municipio,-73.632543,5.539136
15621,RONDÓN,BOYACÁ,Municipio,-73.208474,5.357378
15632,SABOYÁ,BOYACÁ,Municipio,-73.764456,5.697756
15638,SÁCHICA,BOYACÁ,Municipio,-73.542539,5.584305
15646,SAMACÁ,BOYACÁ,Municipio,-73.485589,5.492161
15660,SAN EDUARDO,BOYACÁ,Municipio,-73.077747,5.22401
15664,SAN JOSÉ DE PARE,BOYACÁ,Municipio,-73.545397,6.018924
15667,SAN LUIS DE GACENO,BOYACÁ,Municipio,-73.168076,4.81976
15673,SAN MATEO,BOYACÁ,Municipio,-72.555264,6.401683
15676,SAN MIGUEL DE SEMA,BOYACÁ,Municipio,-73.722009,5.518083
15681,SAN PABLO DE BORBUR,BOYACÁ,Municipio,-74.069963,5.650743
15686,SANTANA,BOYACÁ,Municipio,-73.481639,6.056866
15690,SANTA MARÍA,BOYACÁ,Municipio,-73.263518,4.857193
15693,SANTA ROSA DE VITERBO,BOYACÁ,Municipio,-72.982461,5.874547
15696,SANTA SOFÍA,BOYACÁ,Municipio,-73.602707,5.713269
15720,SATIVANORTE,BOYACÁ,Municipio,-72.708458,6.131132
15723,SATIVASUR,BOYACÁ,Municipio,-72.712435,6.093183
15740,SIACHOQUE,BOYACÁ,Municipio,-73.24466,5.511811
15753,SOATÁ,BOYACÁ,Municipio,-72.684051,6.331945
15755,SOCOTÁ,BOYACÁ,Municipio,-72.636653,6.041162
15757,SOCHA,BOYACÁ,Municipio,-72.691963,5.996717
15759,SOGAMOSO,BOYACÁ,Municipio,-72.924355,5.723976
15761,SOMONDOCO,BOYACÁ,Municipio,-73.433393,4.985726
15762,SORA,BOYACÁ,Municipio,-73.450153,5.56684
15763,SOTAQUIRÁ,BOYACÁ,Municipio,-73.246585,5.764986
15764,SORACÁ,BOYACÁ,Municipio,-73.332804,5.500898
15774,SUSACÓN,BOYACÁ,Municipio,-72.690289,6.230332
15776,SUTAMARCHÁN,BOYACÁ,Municipio,-73.620536,5.619781
15778,SUTATENZA,BOYACÁ,Municipio,-73.452317,5.022989
15790,TASCO,BOYACÁ,Municipio,-72.781011,5.909821
15798,TENZA,BOYACÁ,Municipio,-73.421176,5.076781
15804,TIBANÁ,BOYACÁ,Municipio,-73.396457,5.317251
15806,TIBASOSA,BOYACÁ,Municipio,-72.999449,5.74723
15808,TINJACÁ,BOYACÁ,Municipio,-73.646847,5.579713
15810,TIPACOQUE,BOYACÁ,Municipio,-72.691729,6.419203
15814,TOCA,BOYACÁ,Municipio,-73.184794,5.566464
15816,TOGÜÍ,BOYACÁ,Municipio,-73.513655,5.937438
15820,TÓPAGA,BOYACÁ,Municipio,-72.832245,5.768201
15822,TOTA,BOYACÁ,Municipio,-72.985898,5.560497
15832,TUNUNGUÁ,BOYACÁ,Municipio,-73.933155,5.730582
15835,TURMEQUÉ,BOYACÁ,Municipio,-73.491825,5.323261
15837,TUTA,BOYACÁ,Municipio,-73.230285,5.689082
15839,TUTAZÁ,BOYACÁ,Municipio,-72.856035,6.032608
15842,ÚMBITA,BOYACÁ,Municipio,-73.456917,5.221176
15861,VENTAQUEMADA,BOYACÁ,Municipio,-73.522368,5.368739
15879,VIRACACHÁ,BOYACÁ,Municipio,-73.296894,5.436833
15897,ZETAQUIRA,BOYACÁ,Municipio,-73.17098,5.283443
17001,MANIZALES,CALDAS,Municipio,-75.491025,5.057657
17013,AGUADAS,CALDAS,Municipio,-75.45487,5.610244
17042,ANSERMA,CALDAS,Municipio,-75.784343,5.236471
17050,ARANZAZU,CALDAS,Municipio,-75.49129,5.271195
17088,BELALCÁZAR,CALDAS,Municipio,-75.811918,4.993785
17174,CHINCHINÁ,CALDAS,Municipio,-75.607529,4.985227
17272,FILADELFIA,CALDAS,Municipio,-75.562474,5.297091
17380,LA DORADA,CALDAS,Municipio,-74.668819,5.460834
17388,LA MERCED,CALDAS,Municipio,-75.546486,5.39647
17433,MANZANARES,CALDAS,Municipio,-75.152829,5.255699
17442,MARMATO,CALDAS,Municipio,-75.600049,5.47422
17444,MARQUETALIA,CALDAS,Municipio,-75.053097,5.297525
17446,MARULANDA,CALDAS,Municipio,-75.259721,5.284304
17486,NEIRA,CALDAS,Municipio,-75.520006,5.166895
17495,NORCASIA,CALDAS,Municipio,-74.889543,5.574796
17513,PÁCORA,CALDAS,Municipio,-75.459621,5.527172
17524,PALESTINA,CALDAS,Municipio,-75.624577,5.017879
17541,PENSILVANIA,CALDAS,Municipio,-75.160299,5.383281
17614,RIOSUCIO,CALDAS,Municipio,-75.702104,5.423673
17616,RISARALDA,CALDAS,Municipio,-75.76722,5.164509
17653,SALAMINA,CALDAS,Municipio,-75.487223,5.403025
17662,SAMANÁ,CALDAS,Municipio,-74.992263,5.41308
17665,SAN JOSÉ,CALDAS,Municipio,-75.792063,5.08231
17777,SUPÍA,CALDAS,Municipio,-75.64966,5.446843
17867,VICTORIA,CALDAS,Municipio,-74.911239,5.317437
17873,VILLAMARÍA,CALDAS,Municipio,-75.502487,5.038925
17877,VITERBO,CALDAS,Municipio,-75.87061,5.062664
18001,FLORENCIA,CAQUETÁ,Municipio,-75.609831,1.618196
18029,ALBANIA,CAQUETÁ,Municipio,-75.878375,1.328526
18094,BELÉN DE LOS ANDAQUÍES,CAQUETÁ,Municipio,-75.872405,1.415812
18150,CARTAGENA DEL CHAIRÁ,CAQUETÁ,Municipio,-74.847867,1.332371
18205,CURILLO,CAQUETÁ,Municipio,-75.919205,1.033473
18247,EL DONCELLO,CAQUETÁ,Municipio,-75.283631,1.679951
18256,EL PAUJÍL,CAQUETÁ,Municipio,-75.326093,1.570226
18410,LA MONTAÑITA,CAQUETÁ,Municipio,-75.436408,1.479173
18460,MILÁN,CAQUETÁ,Municipio,-75.506926,1.29021
18479,MORELIA,CAQUETÁ,Municipio,-75.724146,1.486611
18592,PUERTO RICO,CAQUETÁ,Municipio,-75.157604,1.909063
18610,SAN JOSÉ DEL FRAGUA,CAQUETÁ,Municipio,-75.973796,1.330266
18753,SAN VICENTE DEL CAGUÁN,CAQUETÁ,Municipio,-74.767894,2.119413
18756,SOLANO,CAQUETÁ,Municipio,-75.253702,0.699077
18785,SOLITA,CAQUETÁ,Municipio,-75.619902,0.87654
18860,VALPARAÍSO,CAQUETÁ,Municipio,-75.70671,1.194619
19001,POPAYÁN,CAUCA,Municipio,-76.599377,2.459641
19022,ALMAGUER,CAUCA,Municipio,-76.85607,1.913429
19050,ARGELIA,CAUCA,Municipio,-77.24905,2.257427
19075,BALBOA,CAUCA,Municipio,-77.215773,2.040998
19100,BOLÍVAR,CAUCA,Municipio,-76.966215,1.837538
19110,BUENOS AIRES,CAUCA,Municipio,-76.642238,3.015382
19130,CAJIBÍO,CAUCA,Municipio,-76.570682,2.623371
19137,CALDONO,CAUCA,Municipio,-76.484319,2.798059
19142,CALOTO,CAUCA,Municipio,-76.408941,3.034531
19212,CORINTO,CAUCA,Municipio,-76.261866,3.173854
19256,EL TAMBO,CAUCA,Municipio,-76.810911,2.451409
19290,FLORENCIA,CAUCA,Municipio,-77.072547,1.682535
19300,GUACHENÉ,CAUCA,Municipio,-76.392189,3.134153
19318,GUAPI,CAUCA,Municipio,-77.88797,2.571337
19355,INZÁ,CAUCA,Municipio,-76.063503,2.549183
19364,JAMBALÓ,CAUCA,Municipio,-76.323877,2.777834
19392,LA SIERRA,CAUCA,Municipio,-76.763278,2.179383
19397,LA VEGA,CAUCA,Municipio,-76.778771,2.001803
19418,LÓPEZ DE MICAY,CAUCA,Municipio,-77.247803,2.846788
19450,MERCADERES,CAUCA,Municipio,-77.164319,1.789193
19455,MIRANDA,CAUCA,Municipio,-76.228722,3.254651
19473,MORALES,CAUCA,Municipio,-76.629106,2.754684
19513,PADILLA,CAUCA,Municipio,-76.313265,3.220984
19517,PÁEZ,CAUCA,Municipio,-75.970685,2.645724
19532,PATÍA,CAUCA,Municipio,-76.981075,2.115875
19533,PIAMONTE,CAUCA,Municipio,-76.327588,1.11754
19548,PIENDAMÓ - TUNÍA,CAUCA,Municipio,-76.528615,2.64228
19573,PUERTO TEJADA,CAUCA,Municipio,-76.417673,3.233254
19585,PURACÉ,CAUCA,Municipio,-76.496698,2.341507
19622,ROSAS,CAUCA,Municipio,-76.740336,2.260941
19693,SAN SEBASTIÁN,CAUCA,Municipio,-76.769467,1.838451
19698,SANTANDER DE QUILICHAO,CAUCA,Municipio,-76.485141,3.015008
19701,SANTA ROSA,CAUCA,Municipio,-76.573252,1.700916
19743,SILVIA,CAUCA,Municipio,-76.379753,2.611927
19760,SOTARÁ - PAISPAMBA,CAUCA,Municipio,-76.613365,2.253156
19780,SUÁREZ,CAUCA,Municipio,-76.69357,2.959785
19785,SUCRE,CAUCA,Municipio,-76.926279,2.038237
19807,TIMBÍO,CAUCA,Municipio,-76.684476,2.349686
19809,TIMBIQUÍ,CAUCA,Municipio,-77.667541,2.777312
19821,TORIBÍO,CAUCA,Municipio,-76.270284,2.953017
19824,TOTORÓ,CAUCA,Municipio,-76.403628,2.510252
19845,VILLA RICA,CAUCA,Municipio,-76.458025,3.17762
20001,VALLEDUPAR,CESAR,Municipio,-73.259398,10.460472
20011,AGUACHICA,CESAR,Municipio,-73.614027,8.306811
20013,AGUSTÍN CODAZZI,CESAR,Municipio,-73.238389,10.040454
20032,ASTREA,CESAR,Municipio,-73.975842,9.498062
20045,BECERRIL,CESAR,Municipio,-73.278707,9.704404
20060,BOSCONIA,CESAR,Municipio,-73.888761,9.975098
20175,CHIMICHAGUA,CESAR,Municipio,-73.813278,9.25875
20178,CHIRIGUANÁ,CESAR,Municipio,-73.599913,9.361058
20228,CURUMANÍ,CESAR,Municipio,-73.540843,9.201716
20238,EL COPEY,CESAR,Municipio,-73.962703,10.149883
20250,EL PASO,CESAR,Municipio,-73.742012,9.668461
20295,GAMARRA,CESAR,Municipio,-73.737558,8.324793
20310,GONZÁLEZ,CESAR,Municipio,-73.38004,8.389604
20383,LA GLORIA,CESAR,Municipio,-73.80321,8.619298
20400,LA JAGUA DE IBIRICO,CESAR,Municipio,-73.334143,9.563752
20443,MANAURE BALCÓN DEL CESAR,CESAR,Municipio,-73.029472,10.390776
20517,PAILITAS,CESAR,Municipio,-73.625825,8.959399
20550,PELAYA,CESAR,Municipio,-73.666735,8.689451
20570,PUEBLO BELLO,CESAR,Municipio,-73.586211,10.417321
20614,RÍO DE ORO,CESAR,Municipio,-73.386393,8.292292
20621,LA PAZ,CESAR,Municipio,-73.171365,10.387552
20710,SAN ALBERTO,CESAR,Municipio,-73.393889,7.76111
20750,SAN DIEGO,CESAR,Municipio,-73.181208,10.333039
20770,SAN MARTÍN,CESAR,Municipio,-73.510914,7.999855
20787,TAMALAMEQUE,CESAR,Municipio,-73.812172,8.861725
23001,MONTERÍA,CÓRDOBA,Municipio,-75.873096,8.759789
23068,AYAPEL,CÓRDOBA,Municipio,-75.146048,8.313838
23079,BUENAVISTA,CÓRDOBA,Municipio,-75.480897,8.221187
23090,CANALETE,CÓRDOBA,Municipio,-76.241476,8.786939
23162,CERETÉ,CÓRDOBA,Municipio,-75.796093,8.888532
23168,CHIMÁ,CÓRDOBA,Municipio,-75.626886,9.149698
23182,CHINÚ,CÓRDOBA,Municipio,-75.399633,9.105473
23189,CIÉNAGA DE ORO,CÓRDOBA,Municipio,-75.620807,8.875794
23300,COTORRA,CÓRDOBA,Municipio,-75.799216,9.037163
23350,LA APARTADA,CÓRDOBA,Municipio,-75.336031,8.050125
23417,LORICA,CÓRDOBA,Municipio,-75.816084,9.240789
23419,LOS CÓRDOBAS,CÓRDOBA,Municipio,-76.35518,8.892098
23464,MOMIL,CÓRDOBA,Municipio,-75.67796,9.240707
23466,MONTELÍBANO,CÓRDOBA,Municipio,-75.416818,7.973777
23500,MOÑITOS,CÓRDOBA,Municipio,-76.1291,9.245223
23555,PLANETA RICA,CÓRDOBA,Municipio,-75.583241,8.4082
23570,PUEBLO NUEVO,CÓRDOBA,Municipio,-75.508035,8.504099
23574,PUERTO ESCONDIDO,CÓRDOBA,Municipio,-76.260411,9.005372
23580,PUERTO LIBERTADOR,CÓRDOBA,Municipio,-75.671761,7.888859
23586,PURÍSIMA DE LA CONCEPCIÓN,CÓRDOBA,Municipio,-75.724987,9.239295
23660,SAHAGÚN,CÓRDOBA,Municipio,-75.445834,8.943048
23670,SAN ANDRÉS DE SOTAVENTO,CÓRDOBA,Municipio,-75.50879,9.145448
23672,SAN ANTERO,CÓRDOBA,Municipio,-75.76112,9.376434
23675,SAN BERNARDO DEL VIENTO,CÓRDOBA,Municipio,-75.955107,9.35247
23678,SAN CARLOS,CÓRDOBA,Municipio,-75.698799,8.799282
23682,SAN JOSÉ DE URÉ,CÓRDOBA,Municipio,-75.533476,7.787303
23686,SAN PELAYO,CÓRDOBA,Municipio,-75.835615,8.958436
23807,TIERRALTA,CÓRDOBA,Municipio,-76.059797,8.170612
23815,TUCHÍN,CÓRDOBA,Municipio,-75.553962,9.186625
23855,VALENCIA,CÓRDOBA,Municipio,-76.150756,8.255016
25001,AGUA DE DIOS,CUNDINAMARCA,Municipio,-74.669221,4.375309
25019,ALBÁN,CUNDINAMARCA,Municipio,-74.438261,4.878022
25035,ANAPOIMA,CUNDINAMARCA,Municipio,-74.528676,4.562737
25040,ANOLAIMA,CUNDINAMARCA,Municipio,-74.46384,4.7617
25053,ARBELÁEZ,CUNDINAMARCA,Municipio,-74.414901,4.272534
25086,BELTRÁN,CUNDINAMARCA,Municipio,-74.741666,4.802832
25095,BITUIMA,CUNDINAMARCA,Municipio,-74.539609,4.872171
25099,BOJACÁ,CUNDINAMARCA,Municipio,-74.344594,4.737205
25120,CABRERA,CUNDINAMARCA,Municipio,-74.484549,3.985164
25123,CACHIPAY,CUNDINAMARCA,Municipio,-74.435711,4.730957
25126,CAJICÁ,CUNDINAMARCA,Municipio,-74.02298,4.920009
25148,CAPARRAPÍ,CUNDINAMARCA,Municipio,-74.491045,5.34758
25151,CÁQUEZA,CUNDINAMARCA,Municipio,-73.946473,4.404112
25154,CARMEN DE CARUPA,CUNDINAMARCA,Municipio,-73.901357,5.349119
25168,CHAGUANÍ,CUNDINAMARCA,Municipio,-74.593455,4.948916
25175,CHÍA,CUNDINAMARCA,Municipio,-74.05,4.866508
25178,CHIPAQUE,CUNDINAMARCA,Municipio,-74.044876,4.442671
25181,CHOACHÍ,CUNDINAMARCA,Municipio,-73.922894,4.527048
25183,CHOCONTÁ,CUNDINAMARCA,Municipio,-73.683533,5.145224
25200,COGUA,CUNDINAMARCA,Municipio,-73.978497,5.061842
25214,COTA,CUNDINAMARCA,Municipio,-74.102569,4.812564
25224,CUCUNUBÁ,CUNDINAMARCA,Municipio,-73.766113,5.249795
25245,EL COLEGIO,CUNDINAMARCA,Municipio,-74.442261,4.577951
25258,EL PEÑÓN,CUNDINAMARCA,Municipio,-74.290207,5.248747
25260,EL ROSAL,CUNDINAMARCA,Municipio,-74.263103,4.850589
25269,FACATATIVÁ,CUNDINAMARCA,Municipio,-74.350085,4.813353
25279,FÓMEQUE,CUNDINAMARCA,Municipio,-73.892523,4.485474
25281,FOSCA,CUNDINAMARCA,Municipio,-73.93902,4.339093
25286,FUNZA,CUNDINAMARCA,Municipio,-74.201528,4.710412
25288,FÚQUENE,CUNDINAMARCA,Municipio,-73.795855,5.403997
25290,FUSAGASUGÁ,CUNDINAMARCA,Municipio,-74.37543,4.336723
25293,GACHALÁ,CUNDINAMARCA,Municipio,-73.520161,4.693579
25295,GACHANCIPÁ,CUNDINAMARCA,Municipio,-73.873464,4.990947
25297,GACHETÁ,CUNDINAMARCA,Municipio,-73.636377,4.816411
25299,GAMA,CUNDINAMARCA,Municipio,-73.611037,4.763325
25307,GIRARDOT,CUNDINAMARCA,Municipio,-74.798201,4.313069
25312,GRANADA,CUNDINAMARCA,Municipio,-74.350766,4.519763
25317,GUACHETÁ,CUNDINAMARCA,Municipio,-73.686972,5.383378
25320,GUADUAS,CUNDINAMARCA,Municipio,-74.603402,5.072076
25322,GUASCA,CUNDINAMARCA,Municipio,-73.877143,4.866719
25324,GUATAQUÍ,CUNDINAMARCA,Municipio,-74.790058,4.517517
25326,GUATAVITA,CUNDINAMARCA,Municipio,-73.83293,4.935211
25328,GUAYABAL DE SÍQUIMA,CUNDINAMARCA,Municipio,-74.467437,4.877968
25335,GUAYABETAL,CUNDINAMARCA,Municipio,-73.815107,4.215306
25339,GUTIÉRREZ,CUNDINAMARCA,Municipio,-74.003042,4.254679
25368,JERUSALÉN,CUNDINAMARCA,Municipio,-74.695474,4.562273
25372,JUNÍN,CUNDINAMARCA,Municipio,-73.662961,4.79057
25377,LA CALERA,CUNDINAMARCA,Municipio,-73.968161,4.721104
25386,LA MESA,CUNDINAMARCA,Municipio,-74.461588,4.631028
25394,LA PALMA,CUNDINAMARCA,Municipio,-74.391022,5.358816
25398,LA PEÑA,CUNDINAMARCA,Municipio,-74.394105,5.198945
25402,LA VEGA,CUNDINAMARCA,Municipio,-74.336885,4.997768
25407,LENGUAZAQUE,CUNDINAMARCA,Municipio,-73.711512,5.306131
25426,MACHETÁ,CUNDINAMARCA,Municipio,-73.608226,5.08007
25430,MADRID,CUNDINAMARCA,Municipio,-74.265854,4.732791
25436,MANTA,CUNDINAMARCA,Municipio,-73.540444,5.009008
25438,MEDINA,CUNDINAMARCA,Municipio,-73.348449,4.506298
25473,MOSQUERA,CUNDINAMARCA,Municipio,-74.221154,4.70653
25483,NARIÑO,CUNDINAMARCA,Municipio,-74.824732,4.399837
25486,NEMOCÓN,CUNDINAMARCA,Municipio,-73.877888,5.068705
25488,NILO,CUNDINAMARCA,Municipio,-74.620009,4.305838
25489,NIMAIMA,CUNDINAMARCA,Municipio,-74.38604,5.125992
25491,NOCAIMA,CUNDINAMARCA,Municipio,-74.379093,5.069466
25506,VENECIA,CUNDINAMARCA,Municipio,-74.478301,4.089056
25513,PACHO,CUNDINAMARCA,Municipio,-74.156132,5.136907
25518,PAIME,CUNDINAMARCA,Municipio,-74.152213,5.370487
25524,PANDI,CUNDINAMARCA,Municipio,-74.486641,4.190393
25530,PARATEBUENO,CUNDINAMARCA,Municipio,-73.212825,4.374832
25535,PASCA,CUNDINAMARCA,Municipio,-74.302276,4.308979
25572,PUERTO SALGAR,CUNDINAMARCA,Municipio,-74.653695,5.465413
25580,PULÍ,CUNDINAMARCA,Municipio,-74.71438,4.682022
25592,QUEBRADANEGRA,CUNDINAMARCA,Municipio,-74.48014,5.118076
25594,QUETAME,CUNDINAMARCA,Municipio,-73.863214,4.329884
25596,QUIPILE,CUNDINAMARCA,Municipio,-74.533705,4.74481
25599,APULO,CUNDINAMARCA,Municipio,-74.593926,4.520304
25612,RICAURTE,CUNDINAMARCA,Municipio,-74.772861,4.282113
25645,SAN ANTONIO DEL TEQUENDAMA,CUNDINAMARCA,Municipio,-74.351443,4.616138
25649,SAN BERNARDO,CUNDINAMARCA,Municipio,-74.42296,4.179433
25653,SAN CAYETANO,CUNDINAMARCA,Municipio,-74.024754,5.332938
25658,SAN FRANCISCO,CUNDINAMARCA,Municipio,-74.289672,4.972917
25662,SAN JUAN DE RIOSECO,CUNDINAMARCA,Municipio,-74.621919,4.847575
25718,SASAIMA,CUNDINAMARCA,Municipio,-74.432628,4.962167
25736,SESQUILÉ,CUNDINAMARCA,Municipio,-73.796099,5.04476
25740,SIBATÉ,CUNDINAMARCA,Municipio,-74.257874,4.492625
25743,SILVANIA,CUNDINAMARCA,Municipio,-74.405534,4.381981
25745,SIMIJACA,CUNDINAMARCA,Municipio,-73.850703,5.505231
25754,SOACHA,CUNDINAMARCA,Municipio,-74.215463,4.579268
25758,SOPÓ,CUNDINAMARCA,Municipio,-73.943328,4.915395
25769,SUBACHOQUE,CUNDINAMARCA,Municipio,-74.172773,4.929118
25772,SUESCA,CUNDINAMARCA,Municipio,-73.798227,5.103495
25777,SUPATÁ,CUNDINAMARCA,Municipio,-74.235403,5.06162
25779,SUSA,CUNDINAMARCA,Municipio,-73.813938,5.455291
25781,SUTATAUSA,CUNDINAMARCA,Municipio,-73.853159,5.247482
25785,TABIO,CUNDINAMARCA,Municipio,-74.096461,4.916832
25793,TAUSA,CUNDINAMARCA,Municipio,-73.887813,5.196333
25797,TENA,CUNDINAMARCA,Municipio,-74.389193,4.655286
25799,TENJO,CUNDINAMARCA,Municipio,-74.143724,4.872014
25805,TIBACUY,CUNDINAMARCA,Municipio,-74.452662,4.348605
25807,TIBIRITA,CUNDINAMARCA,Municipio,-73.504514,5.052278
25815,TOCAIMA,CUNDINAMARCA,Municipio,-74.636296,4.459279
25817,TOCANCIPÁ,CUNDINAMARCA,Municipio,-73.91207,4.964641
25823,TOPAIPÍ,CUNDINAMARCA,Municipio,-74.300626,5.336224
25839,UBALÁ,CUNDINAMARCA,Municipio,-73.531489,4.74762
25841,UBAQUE,CUNDINAMARCA,Municipio,-73.933477,4.483788
25843,VILLA DE SAN DIEGO DE UBATÉ,CUNDINAMARCA,Municipio,-73.814367,5.307463
25845,UNE,CUNDINAMARCA,Municipio,-74.025183,4.40245
25851,ÚTICA,CUNDINAMARCA,Municipio,-74.483154,5.19055
25862,VERGARA,CUNDINAMARCA,Municipio,-74.346163,5.117258
25867,VIANÍ,CUNDINAMARCA,Municipio,-74.56132,4.875208
25871,VILLAGÓMEZ,CUNDINAMARCA,Municipio,-74.195145,5.273024
25873,VILLAPINZÓN,CUNDINAMARCA,Municipio,-73.595704,5.216393
25875,VILLETA,CUNDINAMARCA,Municipio,-74.469686,5.012754
25878,VIOTÁ,CUNDINAMARCA,Municipio,-74.523131,4.43935
25885,YACOPÍ,CUNDINAMARCA,Municipio,-74.33806,5.459272
25898,ZIPACÓN,CUNDINAMARCA,Municipio,-74.379566,4.759932
25899,ZIPAQUIRÁ,CUNDINAMARCA,Municipio,-73.994444,5.025477
27001,QUIBDÓ,CHOCÓ,Municipio,-76.638144,5.682166
27006,ACANDÍ,CHOCÓ,Municipio,-77.279951,8.512178
27025,ALTO BAUDÓ,CHOCÓ,Municipio,-76.974373,5.516221
27050,ATRATO,CHOCÓ,Municipio,-76.635674,5.531419
27073,BAGADÓ,CHOCÓ,Municipio,-76.416063,5.409681
27075,BAHÍA SOLANO,CHOCÓ,Municipio,-77.401359,6.222807
27077,BAJO BAUDÓ,CHOCÓ,Municipio,-77.365717,4.954576
27099,BOJAYÁ,CHOCÓ,Municipio,-76.886773,6.559708
27135,EL CANTÓN DEL SAN PABLO,CHOCÓ,Municipio,-76.726844,5.335321
27150,CARMEN DEL DARIÉN,CHOCÓ,Municipio,-76.970798,7.158294
27160,CÉRTEGUI,CHOCÓ,Municipio,-76.607619,5.371373
27205,CONDOTO,CHOCÓ,Municipio,-76.650683,5.091003
27245,EL CARMEN DE ATRATO,CHOCÓ,Municipio,-76.142112,5.899789
27250,EL LITORAL DEL SAN JUAN,CHOCÓ,Municipio,-77.363702,4.259564
27361,ISTMINA,CHOCÓ,Municipio,-76.68518,5.153946
27372,JURADÓ,CHOCÓ,Municipio,-77.762751,7.103619
27413,LLORÓ,CHOCÓ,Municipio,-76.545147,5.49789
27425,MEDIO ATRATO,CHOCÓ,Municipio,-76.783042,5.994935
27430,MEDIO BAUDÓ,CHOCÓ,Municipio,-76.950891,5.192471
27450,MEDIO SAN JUAN,CHOCÓ,Municipio,-76.694409,5.098291
27491,NÓVITA,CHOCÓ,Municipio,-76.609467,4.956063
27493,NUEVO BELÉN DE BAJIRÁ,CHOCÓ,Municipio,-76.71727,7.3719
27495,NUQUÍ,CHOCÓ,Municipio,-77.265507,5.709812
27580,RÍO IRÓ,CHOCÓ,Municipio,-76.472925,5.1863
27600,RÍO QUITO,CHOCÓ,Municipio,-76.740684,5.483667
27615,RIOSUCIO,CHOCÓ,Municipio,-77.113156,7.436704
27660,SAN JOSÉ DEL PALMAR,CHOCÓ,Municipio,-76.234227,4.896954
27745,SIPÍ,CHOCÓ,Municipio,-76.643453,4.65262
27787,TADÓ,CHOCÓ,Municipio,-76.558571,5.264873
27800,UNGUÍA,CHOCÓ,Municipio,-77.092538,8.04406
27810,UNIÓN PANAMERICANA,CHOCÓ,Municipio,-76.630143,5.281108
41001,NEIVA,HUILA,Municipio,-75.277327,2.935432
41006,ACEVEDO,HUILA,Municipio,-75.888706,1.805173
41013,AGRADO,HUILA,Municipio,-75.772022,2.25987
41016,AIPE,HUILA,Municipio,-75.239017,3.223996
41020,ALGECIRAS,HUILA,Municipio,-75.315389,2.521674
41026,ALTAMIRA,HUILA,Municipio,-75.788471,2.063841
41078,BARAYA,HUILA,Municipio,-75.054843,3.152204
41132,CAMPOALEGRE,HUILA,Municipio,-75.325748,2.686767
41206,COLOMBIA,HUILA,Municipio,-74.802815,3.376745
41244,ELÍAS,HUILA,Municipio,-75.938301,2.012854
41298,GARZÓN,HUILA,Municipio,-75.627057,2.196493
41306,GIGANTE,HUILA,Municipio,-75.547681,2.384031
41319,GUADALUPE,HUILA,Municipio,-75.757185,2.02426
41349,HOBO,HUILA,Municipio,-75.447697,2.580812
41357,ÍQUIRA,HUILA,Municipio,-75.634497,2.649359
41359,ISNOS,HUILA,Municipio,-76.217637,1.929467
41378,LA ARGENTINA,HUILA,Municipio,-75.979763,2.198496
41396,LA PLATA,HUILA,Municipio,-75.891254,2.389263
41483,NÁTAGA,HUILA,Municipio,-75.808756,2.5451
41503,OPORAPA,HUILA,Municipio,-75.995165,2.025088
41518,PAICOL,HUILA,Municipio,-75.773158,2.449651
41524,PALERMO,HUILA,Municipio,-75.435296,2.889649
41530,PALESTINA,HUILA,Municipio,-76.133251,1.723725
41548,PITAL,HUILA,Municipio,-75.804544,2.266618
41551,PITALITO,HUILA,Municipio,-76.049441,1.852631
41615,RIVERA,HUILA,Municipio,-75.258753,2.777586
41660,SALADOBLANCO,HUILA,Municipio,-76.044747,1.9934
41668,SAN AGUSTÍN,HUILA,Municipio,-76.27036,1.881081
41676,SANTA MARÍA,HUILA,Municipio,-75.586223,2.939603
41770,SUAZA,HUILA,Municipio,-75.79525,1.976051
41791,TARQUI,HUILA,Municipio,-75.823976,2.111325
41797,TESALIA,HUILA,Municipio,-75.730271,2.486364
41799,TELLO,HUILA,Municipio,-75.138773,3.067538
41801,TERUEL,HUILA,Municipio,-75.567034,2.740968
41807,TIMANÁ,HUILA,Municipio,-75.932167,1.974539
41872,VILLAVIEJA,HUILA,Municipio,-75.217174,3.218822
41885,YAGUARÁ,HUILA,Municipio,-75.518023,2.664694
44001,RIOHACHA,LA GUAJIRA,Municipio,-72.911795,11.528588
44035,ALBANIA,LA GUAJIRA,Municipio,-72.61232,11.151628
44078,BARRANCAS,LA GUAJIRA,Municipio,-72.793639,10.958669
44090,DIBULLA,LA GUAJIRA,Municipio,-73.307598,11.27155
44098,DISTRACCIÓN,LA GUAJIRA,Municipio,-72.887405,10.898414
44110,EL MOLINO,LA GUAJIRA,Municipio,-72.92673,10.653505
44279,FONSECA,LA GUAJIRA,Municipio,-72.846319,10.886734
44378,HATONUEVO,LA GUAJIRA,Municipio,-72.75904,11.068864
44420,LA JAGUA DEL PILAR,LA GUAJIRA,Municipio,-73.072638,10.511862
44430,MAICAO,LA GUAJIRA,Municipio,-72.242738,11.378535
44560,MANAURE,LA GUAJIRA,Municipio,-72.438739,11.773767
44650,SAN JUAN DEL CESAR,LA GUAJIRA,Municipio,-73.000629,10.769546
44847,URIBIA,LA GUAJIRA,Municipio,-72.265906,11.711904
44855,URUMITA,LA GUAJIRA,Municipio,-73.012507,10.560169
44874,VILLANUEVA,LA GUAJIRA,Municipio,-72.977583,10.608774
47001,SANTA MARTA,MAGDALENA,Municipio,-74.199829,11.204679
47030,ALGARROBO,MAGDALENA,Municipio,-74.061132,10.188059
47053,ARACATACA,MAGDALENA,Municipio,-74.186702,10.589791
47058,ARIGUANÍ,MAGDALENA,Municipio,-74.236515,9.847047
47161,CERRO DE SAN ANTONIO,MAGDALENA,Municipio,-74.868474,10.325531
47170,CHIVOLO,MAGDALENA,Municipio,-74.622242,10.026631
47189,CIÉNAGA,MAGDALENA,Municipio,-74.241286,11.006654
47205,CONCORDIA,MAGDALENA,Municipio,-74.83303,10.257314
47245,EL BANCO,MAGDALENA,Municipio,-73.97437,9.008503
47258,EL PIÑÓN,MAGDALENA,Municipio,-74.823094,10.402781
47268,EL RETÉN,MAGDALENA,Municipio,-74.268444,10.610488
47288,FUNDACIÓN,MAGDALENA,Municipio,-74.191453,10.514146
47318,GUAMAL,MAGDALENA,Municipio,-74.223689,9.144354
47460,NUEVA GRANADA,MAGDALENA,Municipio,-74.391841,9.80186
47541,PEDRAZA,MAGDALENA,Municipio,-74.9154,10.18825
47545,PIJIÑO DEL CARMEN,MAGDALENA,Municipio,-74.459034,9.331922
47551,PIVIJAY,MAGDALENA,Municipio,-74.613312,10.460707
47555,PLATO,MAGDALENA,Municipio,-74.784549,9.796713
47570,PUEBLOVIEJO,MAGDALENA,Municipio,-74.28253,10.994766
47605,REMOLINO,MAGDALENA,Municipio,-74.716172,10.701952
47660,SABANAS DE SAN ÁNGEL,MAGDALENA,Municipio,-74.213946,10.032536
47675,SALAMINA,MAGDALENA,Municipio,-74.794189,10.491229
47692,SAN SEBASTIÁN DE BUENAVISTA,MAGDALENA,Municipio,-74.351498,9.241656
47703,SAN ZENÓN,MAGDALENA,Municipio,-74.498992,9.245061
47707,SANTA ANA,MAGDALENA,Municipio,-74.566845,9.324294
47720,SANTA BÁRBARA DE PINTO,MAGDALENA,Municipio,-74.704667,9.432263
47745,SITIONUEVO,MAGDALENA,Municipio,-74.720021,10.775285
47798,TENERIFE,MAGDALENA,Municipio,-74.859783,9.898273
47960,ZAPAYÁN,MAGDALENA,Municipio,-74.716878,10.168297
47980,ZONA BANANERA,MAGDALENA,Municipio,-74.140091,10.763024
50001,VILLAVICENCIO,META,Municipio,-73.622601,4.126369
50006,ACACÍAS,META,Municipio,-73.766034,3.990413
50110,BARRANCA DE UPÍA,META,Municipio,-72.961083,4.566225
50124,CABUYARO,META,Municipio,-72.791768,4.286705
50150,CASTILLA LA NUEVA,META,Municipio,-73.687302,3.830005
50223,CUBARRAL,META,Municipio,-73.837999,3.793653
50226,CUMARAL,META,Municipio,-73.487052,4.270042
50245,EL CALVARIO,META,Municipio,-73.713325,4.352665
50251,EL CASTILLO,META,Municipio,-73.794225,3.563907
50270,EL DORADO,META,Municipio,-73.835264,3.739984
50287,FUENTE DE ORO,META,Municipio,-73.618121,3.462875
50313,GRANADA,META,Municipio,-73.705815,3.547147
50318,GUAMAL,META,Municipio,-73.768815,3.879657
50325,MAPIRIPÁN,META,Municipio,-72.135509,2.896617
50330,MESETAS,META,Municipio,-74.044328,3.382732
50350,LA MACARENA,META,Municipio,-73.78661,2.177143
50370,URIBE,META,Municipio,-74.351508,3.239634
50400,LEJANÍAS,META,Municipio,-74.023514,3.525115
50450,PUERTO CONCORDIA,META,Municipio,-72.760209,2.624006
50568,PUERTO GAITÁN,META,Municipio,-72.087649,4.314905
50573,PUERTO LÓPEZ,META,Municipio,-72.957324,4.09349
50577,PUERTO LLERAS,META,Municipio,-73.37385,3.272117
50590,PUERTO RICO,META,Municipio,-73.206314,2.939621
50606,RESTREPO,META,Municipio,-73.565408,4.259556
50680,SAN CARLOS DE GUAROA,META,Municipio,-73.242253,3.71065
50683,SAN JUAN DE ARAMA,META,Municipio,-73.875832,3.373728
50686,SAN JUANITO,META,Municipio,-73.676699,4.458181
50689,SAN MARTÍN,META,Municipio,-73.695812,3.701899
50711,VISTAHERMOSA,META,Municipio,-73.750966,3.125579
52001,PASTO,NARIÑO,Municipio,-77.278795,1.212352
52019,ALBÁN,NARIÑO,Municipio,-77.080712,1.474978
52022,ALDANA,NARIÑO,Municipio,-77.700564,0.882381
52036,ANCUYA,NARIÑO,Municipio,-77.514512,1.263276
52051,ARBOLEDA,NARIÑO,Municipio,-77.135467,1.503418
52079,BARBACOAS,NARIÑO,Municipio,-78.13765,1.671733
52083,BELÉN,NARIÑO,Municipio,-77.015619,1.595681
52110,BUESACO,NARIÑO,Municipio,-77.156463,1.381453
52203,COLÓN,NARIÑO,Municipio,-77.019777,1.643878
52207,CONSACÁ,NARIÑO,Municipio,-77.466136,1.207854
52210,CONTADERO,NARIÑO,Municipio,-77.549409,0.910458
52215,CÓRDOBA,NARIÑO,Municipio,-77.517897,0.854564
52224,CUASPUD CARLOSAMA,NARIÑO,Municipio,-77.728947,0.862978
52227,CUMBAL,NARIÑO,Municipio,-77.792505,0.906367
52233,CUMBITARA,NARIÑO,Municipio,-77.578616,1.647163
52240,CHACHAGÜÍ,NARIÑO,Municipio,-77.281869,1.360545
52250,EL CHARCO,NARIÑO,Municipio,-78.110217,2.479688
52254,EL PEÑOL,NARIÑO,Municipio,-77.438522,1.453567
52256,EL ROSARIO,NARIÑO,Municipio,-77.33417,1.745309
52258,EL TABLÓN DE GÓMEZ,NARIÑO,Municipio,-77.097101,1.427277
52260,EL TAMBO,NARIÑO,Municipio,-77.390772,1.407913
52287,FUNES,NARIÑO,Municipio,-77.448913,1.001159
52317,GUACHUCAL,NARIÑO,Municipio,-77.731589,0.959744
52320,GUAITARILLA,NARIÑO,Municipio,-77.549824,1.129574
52323,GUALMATÁN,NARIÑO,Municipio,-77.568701,0.919652
52352,ILES,NARIÑO,Municipio,-77.521227,0.96952
52354,IMUÉS,NARIÑO,Municipio,-77.496339,1.05506
52356,IPIALES,NARIÑO,Municipio,-77.646367,0.827732
52378,LA CRUZ,NARIÑO,Municipio,-76.970504,1.601318
52381,LA FLORIDA,NARIÑO,Municipio,-77.402882,1.29753
52385,LA LLANADA,NARIÑO,Municipio,-77.58091,1.472892
52390,LA TOLA,NARIÑO,Municipio,-78.189725,2.398999
52399,LA UNIÓN,NARIÑO,Municipio,-77.131316,1.600219
52405,LEIVA,NARIÑO,Municipio,-77.306135,1.934453
52411,LINARES,NARIÑO,Municipio,-77.523953,1.350814
52418,LOS ANDES,NARIÑO,Municipio,-77.521303,1.494587
52427,MAGÜÍ,NARIÑO,Municipio,-78.182924,1.765633
52435,MALLAMA,NARIÑO,Municipio,-77.864549,1.141037
52473,MOSQUERA,NARIÑO,Municipio,-78.452992,2.507139
52480,NARIÑO,NARIÑO,Municipio,-77.357972,1.288979
52490,OLAYA HERRERA,NARIÑO,Municipio,-78.325814,2.347457
52506,OSPINA,NARIÑO,Municipio,-77.566082,1.058433
52520,FRANCISCO PIZARRO,NARIÑO,Municipio,-78.658361,2.040629
52540,POLICARPA,NARIÑO,Municipio,-77.458686,1.627196
52560,POTOSÍ,NARIÑO,Municipio,-77.573003,0.806639
52565,PROVIDENCIA,NARIÑO,Municipio,-77.596794,1.237814
52573,PUERRES,NARIÑO,Municipio,-77.504211,0.885125
52585,PUPIALES,NARIÑO,Municipio,-77.636042,0.870442
52612,RICAURTE,NARIÑO,Municipio,-77.995153,1.212492
52621,ROBERTO PAYÁN,NARIÑO,Municipio,-78.245716,1.697492
52678,SAMANIEGO,NARIÑO,Municipio,-77.594341,1.335438
52683,SANDONÁ,NARIÑO,Municipio,-77.47313,1.283438
52685,SAN BERNARDO,NARIÑO,Municipio,-77.0475,1.513762
52687,SAN LORENZO,NARIÑO,Municipio,-77.21542,1.503362
52693,SAN PABLO,NARIÑO,Municipio,-77.013984,1.669429
52694,SAN PEDRO DE CARTAGO,NARIÑO,Municipio,-77.11941,1.551572
52696,SANTA BÁRBARA,NARIÑO,Municipio,-77.979916,2.449653
52699,SANTACRUZ,NARIÑO,Municipio,-77.677035,1.222589
52720,SAPUYES,NARIÑO,Municipio,-77.62028,1.037536
52786,TAMINANGO,NARIÑO,Municipio,-77.2808,1.570358
52788,TANGUA,NARIÑO,Municipio,-77.393735,1.09482
52835,SAN ANDRÉS DE TUMACO,NARIÑO,Municipio,-78.764073,1.807399
52838,TÚQUERRES,NARIÑO,Municipio,-77.61672,1.085044
52885,YACUANQUER,NARIÑO,Municipio,-77.400169,1.115937
54001,SAN JOSÉ DE CÚCUTA,NORTE DE SANTANDER,Municipio,-72.508178,7.905725
54003,ÁBREGO,NORTE DE SANTANDER,Municipio,-73.221722,8.081616
54051,ARBOLEDAS,NORTE DE SANTANDER,Municipio,-72.798952,7.642985
54099,BOCHALEMA,NORTE DE SANTANDER,Municipio,-72.64701,7.612192
54109,BUCARASICA,NORTE DE SANTANDER,Municipio,-72.868231,8.041299
54125,CÁCOTA,NORTE DE SANTANDER,Municipio,-72.642059,7.268705
54128,CÁCHIRA,NORTE DE SANTANDER,Municipio,-73.048983,7.741248
54172,CHINÁCOTA,NORTE DE SANTANDER,Municipio,-72.601162,7.603112
54174,CHITAGÁ,NORTE DE SANTANDER,Municipio,-72.665468,7.138187
54206,CONVENCIÓN,NORTE DE SANTANDER,Municipio,-73.3372,8.470374
54223,CUCUTILLA,NORTE DE SANTANDER,Municipio,-72.772816,7.539633
54239,DURANIA,NORTE DE SANTANDER,Municipio,-72.658491,7.714804
54245,EL CARMEN,NORTE DE SANTANDER,Municipio,-73.446687,8.510579
54250,EL TARRA,NORTE DE SANTANDER,Municipio,-73.09614,8.574281
54261,EL ZULIA,NORTE DE SANTANDER,Municipio,-72.604717,7.938572
54313,GRAMALOTE,NORTE DE SANTANDER,Municipio,-72.787233,7.916946
54344,HACARÍ,NORTE DE SANTANDER,Municipio,-73.145997,8.321506
54347,HERRÁN,NORTE DE SANTANDER,Municipio,-72.483519,7.506541
54377,LABATECA,NORTE DE SANTANDER,Municipio,-72.495983,7.298414
54385,LA ESPERANZA,NORTE DE SANTANDER,Municipio,-73.328126,7.639839
54398,LA PLAYA,NORTE DE SANTANDER,Municipio,-73.239986,8.21124
54405,LOS PATIOS,NORTE DE SANTANDER,Municipio,-72.505612,7.833186
54418,LOURDES,NORTE DE SANTANDER,Municipio,-72.832376,7.945631
54480,MUTISCUA,NORTE DE SANTANDER,Municipio,-72.747169,7.300469
54498,OCAÑA,NORTE DE SANTANDER,Municipio,-73.35607,8.248574
54518,PAMPLONA,NORTE DE SANTANDER,Municipio,-72.647714,7.372802
54520,PAMPLONITA,NORTE DE SANTANDER,Municipio,-72.639111,7.436745
54553,PUERTO SANTANDER,NORTE DE SANTANDER,Municipio,-72.411363,8.359993
54599,RAGONVALIA,NORTE DE SANTANDER,Municipio,-72.476708,7.577861
54660,SALAZAR,NORTE DE SANTANDER,Municipio,-72.813064,7.773683
54670,SAN CALIXTO,NORTE DE SANTANDER,Municipio,-73.208622,8.40214
54673,SAN CAYETANO,NORTE DE SANTANDER,Municipio,-72.625459,7.875695
54680,SANTIAGO,NORTE DE SANTANDER,Municipio,-72.716203,7.865856
54720,SARDINATA,NORTE DE SANTANDER,Municipio,-72.800577,8.082105
54743,SILOS,NORTE DE SANTANDER,Municipio,-72.757128,7.204736
54800,TEORAMA,NORTE DE SANTANDER,Municipio,-73.28707,8.438134
54810,TIBÚ,NORTE DE SANTANDER,Municipio,-72.734496,8.639891
54820,TOLEDO,NORTE DE SANTANDER,Municipio,-72.481915,7.307692
54871,VILLA CARO,NORTE DE SANTANDER,Municipio,-72.973601,7.914244
54874,VILLA DEL ROSARIO,NORTE DE SANTANDER,Municipio,-72.469758,7.847672
63001,ARMENIA,QUINDÍO,Municipio,-75.680786,4.53598
63111,BUENAVISTA,QUINDÍO,Municipio,-75.739572,4.360029
63130,CALARCÁ,QUINDÍO,Municipio,-75.646085,4.520982
63190,CIRCASIA,QUINDÍO,Municipio,-75.636533,4.617759
63212,CÓRDOBA,QUINDÍO,Municipio,-75.687866,4.392485
63272,FILANDIA,QUINDÍO,Municipio,-75.658387,4.674338
63302,GÉNOVA,QUINDÍO,Municipio,-75.790402,4.206641
63401,LA TEBAIDA,QUINDÍO,Municipio,-75.786887,4.453755
63470,MONTENEGRO,QUINDÍO,Municipio,-75.749827,4.565057
63548,PIJAO,QUINDÍO,Municipio,-75.703329,4.335036
63594,QUIMBAYA,QUINDÍO,Municipio,-75.765074,4.624387
63690,SALENTO,QUINDÍO,Municipio,-75.570844,4.637157
66001,PEREIRA,RISARALDA,Municipio,-75.719711,4.804985
66045,APÍA,RISARALDA,Municipio,-75.942356,5.106526
66075,BALBOA,RISARALDA,Municipio,-75.958663,4.949096
66088,BELÉN DE UMBRÍA,RISARALDA,Municipio,-75.868334,5.200793
66170,DOSQUEBRADAS,RISARALDA,Municipio,-75.675371,4.833131
66318,GUÁTICA,RISARALDA,Municipio,-75.799005,5.315367
66383,LA CELIA,RISARALDA,Municipio,-76.0032,5.002787
66400,LA VIRGINIA,RISARALDA,Municipio,-75.880394,4.896624
66440,MARSELLA,RISARALDA,Municipio,-75.73879,4.935771
66456,MISTRATÓ,RISARALDA,Municipio,-75.882886,5.297039
66572,PUEBLO RICO,RISARALDA,Municipio,-76.030801,5.222043
66594,QUINCHÍA,RISARALDA,Municipio,-75.730431,5.340456
66682,SANTA ROSA DE CABAL,RISARALDA,Municipio,-75.623268,4.876271
66687,SANTUARIO,RISARALDA,Municipio,-75.964628,5.074911
68001,BUCARAMANGA,SANTANDER,Municipio,-73.132562,7.11647
68013,AGUADA,SANTANDER,Municipio,-73.523132,6.162355
68020,ALBANIA,SANTANDER,Municipio,-73.91336,5.759166
68051,ARATOCA,SANTANDER,Municipio,-73.01786,6.694418
68077,BARBOSA,SANTANDER,Municipio,-73.615965,5.932531
68079,BARICHARA,SANTANDER,Municipio,-73.223047,6.634111
68081,BARRANCABERMEJA,SANTANDER,Municipio,-73.849243,7.064857
68092,BETULIA,SANTANDER,Municipio,-73.283669,6.899525
68101,BOLÍVAR,SANTANDER,Municipio,-73.771346,5.988953
68121,CABRERA,SANTANDER,Municipio,-73.246475,6.592118
68132,CALIFORNIA,SANTANDER,Municipio,-72.946491,7.347989
68147,CAPITANEJO,SANTANDER,Municipio,-72.695427,6.527394
68152,CARCASÍ,SANTANDER,Municipio,-72.627099,6.629016
68160,CEPITÁ,SANTANDER,Municipio,-72.973536,6.753518
68162,CERRITO,SANTANDER,Municipio,-72.694851,6.840405
68167,CHARALÁ,SANTANDER,Municipio,-73.146873,6.284339
68169,CHARTA,SANTANDER,Municipio,-72.968798,7.28082
68176,CHIMA,SANTANDER,Municipio,-73.373656,6.344348
68179,CHIPATÁ,SANTANDER,Municipio,-73.637111,6.062521
68190,CIMITARRA,SANTANDER,Municipio,-73.953011,6.320886
68207,CONCEPCIÓN,SANTANDER,Municipio,-72.694567,6.768908
68209,CONFINES,SANTANDER,Municipio,-73.240554,6.357327
68211,CONTRATACIÓN,SANTANDER,Municipio,-73.474426,6.290561
68217,COROMORO,SANTANDER,Municipio,-73.040816,6.294999
68229,CURITÍ,SANTANDER,Municipio,-73.069383,6.605099
68235,EL CARMEN DE CHUCURÍ,SANTANDER,Municipio,-73.51066,6.700038
68245,EL GUACAMAYO,SANTANDER,Municipio,-73.496908,6.245111
68250,EL PEÑÓN,SANTANDER,Municipio,-73.815532,6.05537
68255,EL PLAYÓN,SANTANDER,Municipio,-73.20287,7.470715
68264,ENCINO,SANTANDER,Municipio,-73.098749,6.137429
68266,ENCISO,SANTANDER,Municipio,-72.699647,6.668034
68271,FLORIÁN,SANTANDER,Municipio,-73.97143,5.804659
68276,FLORIDABLANCA,SANTANDER,Municipio,-73.099104,7.072329
68296,GALÁN,SANTANDER,Municipio,-73.287769,6.638423
68298,GÁMBITA,SANTANDER,Municipio,-73.344185,5.945998
68307,GIRÓN,SANTANDER,Municipio,-73.166832,7.070432
68318,GUACA,SANTANDER,Municipio,-72.856322,6.876563
68320,GUADALUPE,SANTANDER,Municipio,-73.419292,6.245847
68322,GUAPOTÁ,SANTANDER,Municipio,-73.320732,6.308635
68324,GUAVATÁ,SANTANDER,Municipio,-73.700906,5.954348
68327,GÜEPSA,SANTANDER,Municipio,-73.575146,6.025013
68344,HATO,SANTANDER,Municipio,-73.308399,6.543957
68368,JESÚS MARÍA,SANTANDER,Municipio,-73.783396,5.876497
68370,JORDÁN,SANTANDER,Municipio,-73.096053,6.732727
68377,LA BELLEZA,SANTANDER,Municipio,-73.965494,5.85925
68385,LANDÁZURI,SANTANDER,Municipio,-73.811359,6.218812
68397,LA PAZ,SANTANDER,Municipio,-73.58959,6.178509
68406,LEBRIJA,SANTANDER,Municipio,-73.219524,7.113351
68418,LOS SANTOS,SANTANDER,Municipio,-73.102739,6.755203
68425,MACARAVITA,SANTANDER,Municipio,-72.593105,6.50658
68432,MÁLAGA,SANTANDER,Municipio,-72.732089,6.703081
68444,MATANZA,SANTANDER,Municipio,-73.015566,7.323175
68464,MOGOTES,SANTANDER,Municipio,-72.969807,6.475246
68468,MOLAGAVITA,SANTANDER,Municipio,-72.809175,6.67432
68498,OCAMONTE,SANTANDER,Municipio,-73.122563,6.339988
68500,OIBA,SANTANDER,Municipio,-73.299791,6.26521
68502,ONZAGA,SANTANDER,Municipio,-72.816766,6.344104
68522,PALMAR,SANTANDER,Municipio,-73.29109,6.537789
68524,PALMAS DEL SOCORRO,SANTANDER,Municipio,-73.287764,6.406139
68533,PÁRAMO,SANTANDER,Municipio,-73.17022,6.416811
68547,PIEDECUESTA,SANTANDER,Municipio,-73.054795,6.997245
68549,PINCHOTE,SANTANDER,Municipio,-73.174209,6.531552
68572,PUENTE NACIONAL,SANTANDER,Municipio,-73.677567,5.878381
68573,PUERTO PARRA,SANTANDER,Municipio,-74.056129,6.650785
68575,PUERTO WILCHES,SANTANDER,Municipio,-73.899909,7.344057
68615,RIONEGRO,SANTANDER,Municipio,-73.150177,7.265014
68655,SABANA DE TORRES,SANTANDER,Municipio,-73.49906,7.391919
68669,SAN ANDRÉS,SANTANDER,Municipio,-72.848864,6.811511
68673,SAN BENITO,SANTANDER,Municipio,-73.50907,6.126656
68679,SAN GIL,SANTANDER,Municipio,-73.134776,6.551952
68682,SAN JOAQUÍN,SANTANDER,Municipio,-72.867638,6.427548
68684,SAN JOSÉ DE MIRANDA,SANTANDER,Municipio,-72.733616,6.658995
68686,SAN MIGUEL,SANTANDER,Municipio,-72.644123,6.575315
68689,SAN VICENTE DE CHUCURÍ,SANTANDER,Municipio,-73.411024,6.880383
68705,SANTA BÁRBARA,SANTANDER,Municipio,-72.907445,6.990996
68720,SANTA HELENA DEL OPÓN,SANTANDER,Municipio,-73.616716,6.339565
68745,SIMACOTA,SANTANDER,Municipio,-73.337368,6.443469
68755,SOCORRO,SANTANDER,Municipio,-73.261198,6.46387
68770,SUAITA,SANTANDER,Municipio,-73.44165,6.101329
68773,SUCRE,SANTANDER,Municipio,-73.790975,5.918743
68780,SURATÁ,SANTANDER,Municipio,-72.984232,7.36658
68820,TONA,SANTANDER,Municipio,-72.967023,7.201417
68855,VALLE DE SAN JOSÉ,SANTANDER,Municipio,-73.143507,6.448028
68861,VÉLEZ,SANTANDER,Municipio,-73.672447,6.009275
68867,VETAS,SANTANDER,Municipio,-72.871041,7.30981
68872,VILLANUEVA,SANTANDER,Municipio,-73.174307,6.670078
68895,ZAPATOCA,SANTANDER,Municipio,-73.268034,6.814387
70001,SINCELEJO,SUCRE,Municipio,-75.395445,9.302322
70110,BUENAVISTA,SUCRE,Municipio,-74.972827,9.319794
70124,CAIMITO,SUCRE,Municipio,-75.117141,8.789324
70204,COLOSÓ,SUCRE,Municipio,-75.353256,9.494192
70215,COROZAL,SUCRE,Municipio,-75.293048,9.318749
70221,COVEÑAS,SUCRE,Municipio,-75.680158,9.402779
70230,CHALÁN,SUCRE,Municipio,-75.312697,9.545352
70233,EL ROBLE,SUCRE,Municipio,-75.198378,9.100647
70235,GALERAS,SUCRE,Municipio,-75.04959,9.160379
70265,GUARANDA,SUCRE,Municipio,-74.537749,8.468556
70400,LA UNIÓN,SUCRE,Municipio,-75.276056,8.853975
70418,LOS PALMITOS,SUCRE,Municipio,-75.268716,9.380269
70429,MAJAGUAL,SUCRE,Municipio,-74.628077,8.541163
70473,MORROA,SUCRE,Municipio,-75.305949,9.331395
70508,OVEJAS,SUCRE,Municipio,-75.229037,9.527176
70523,PALMITO,SUCRE,Municipio,-75.541264,9.333157
70670,SAMPUÉS,SUCRE,Municipio,-75.380222,9.183193
70678,SAN BENITO ABAD,SUCRE,Municipio,-75.031089,8.930108
70702,SAN JUAN DE BETULIA,SUCRE,Municipio,-75.243565,9.273066
70708,SAN MARCOS,SUCRE,Municipio,-75.133831,8.661774
70713,SAN ONOFRE,SUCRE,Municipio,-75.522398,9.736955
70717,SAN PEDRO,SUCRE,Municipio,-75.063647,9.39625
70742,SAN LUIS DE SINCÉ,SUCRE,Municipio,-75.145999,9.244308
70771,SUCRE,SUCRE,Municipio,-74.723175,8.811737
70820,SANTIAGO DE TOLÚ,SUCRE,Municipio,-75.581112,9.525387
70823,SAN JOSÉ DE TOLUVIEJO,SUCRE,Municipio,-75.44085,9.451819
73001,IBAGUÉ,TOLIMA,Municipio,-75.19425,4.432248
73024,ALPUJARRA,TOLIMA,Municipio,-74.9329,3.391548
73026,ALVARADO,TOLIMA,Municipio,-74.953418,4.567356
73030,AMBALEMA,TOLIMA,Municipio,-74.764429,4.782682
73043,ANZOÁTEGUI,TOLIMA,Municipio,-75.093772,4.631756
73055,ARMERO,TOLIMA,Municipio,-74.884438,5.030744
73067,ATACO,TOLIMA,Municipio,-75.382545,3.590591
73124,CAJAMARCA,TOLIMA,Municipio,-75.431971,4.438812
73148,CARMEN DE APICALÁ,TOLIMA,Municipio,-74.717633,4.152334
73152,CASABIANCA,TOLIMA,Municipio,-75.120966,5.078465
73168,CHAPARRAL,TOLIMA,Municipio,-75.480765,3.722918
73200,COELLO,TOLIMA,Municipio,-74.898464,4.287276
73217,COYAIMA,TOLIMA,Municipio,-75.193862,3.798036
73226,CUNDAY,TOLIMA,Municipio,-74.692227,4.059259
73236,DOLORES,TOLIMA,Municipio,-74.896761,3.539072
73268,ESPINAL,TOLIMA,Municipio,-74.885446,4.151314
73270,FALAN,TOLIMA,Municipio,-74.953007,5.123104
73275,FLANDES,TOLIMA,Municipio,-74.818763,4.276373
73283,FRESNO,TOLIMA,Municipio,-75.035722,5.153576
73319,GUAMO,TOLIMA,Municipio,-74.968135,4.030992
73347,HERVEO,TOLIMA,Municipio,-75.177151,5.080228
73349,HONDA,TOLIMA,Municipio,-74.75699,5.211816
73352,ICONONZO,TOLIMA,Municipio,-74.531969,4.176487
73408,LÉRIDA,TOLIMA,Municipio,-74.910716,4.862046
73411,LÍBANO,TOLIMA,Municipio,-75.061959,4.92042
73443,SAN SEBASTIÁN DE MARIQUITA,TOLIMA,Municipio,-74.889276,5.199708
73449,MELGAR,TOLIMA,Municipio,-74.641317,4.203655
73461,MURILLO,TOLIMA,Municipio,-75.171022,4.874341
73483,NATAGAIMA,TOLIMA,Municipio,-75.093182,3.624324
73504,ORTEGA,TOLIMA,Municipio,-75.222601,3.934916
73520,PALOCABILDO,TOLIMA,Municipio,-75.022167,5.120918
73547,PIEDRAS,TOLIMA,Municipio,-74.878106,4.543951
73555,PLANADAS,TOLIMA,Municipio,-75.644163,3.197911
73563,PRADO,TOLIMA,Municipio,-74.927447,3.750939
73585,PURIFICACIÓN,TOLIMA,Municipio,-74.935555,3.857246
73616,RIOBLANCO,TOLIMA,Municipio,-75.644069,3.529932
73622,RONCESVALLES,TOLIMA,Municipio,-75.605959,4.011567
73624,ROVIRA,TOLIMA,Municipio,-75.240648,4.239019
73671,SALDAÑA,TOLIMA,Municipio,-75.016852,3.929815
73675,SAN ANTONIO,TOLIMA,Municipio,-75.480074,3.914146
73678,SAN LUIS,TOLIMA,Municipio,-75.095804,4.133721
73686,SANTA ISABEL,TOLIMA,Municipio,-75.097934,4.713606
73770,SUÁREZ,TOLIMA,Municipio,-74.831885,4.048891
73854,VALLE DE SAN JUAN,TOLIMA,Municipio,-75.115669,4.197494
73861,VENADILLO,TOLIMA,Municipio,-74.929333,4.717878
73870,VILLAHERMOSA,TOLIMA,Municipio,-75.117729,5.030452
73873,VILLARRICA,TOLIMA,Municipio,-74.600285,3.936902
76001,SANTIAGO DE CALI,VALLE DEL CAUCA,Municipio,-76.52133,3.413686
76020,ALCALÁ,VALLE DEL CAUCA,Municipio,-75.779792,4.674994
76036,ANDALUCÍA,VALLE DEL CAUCA,Municipio,-76.167925,4.171713
76041,ANSERMANUEVO,VALLE DEL CAUCA,Municipio,-75.992003,4.794984
76054,ARGELIA,VALLE DEL CAUCA,Municipio,-76.119905,4.726945
76100,BOLÍVAR,VALLE DEL CAUCA,Municipio,-76.183583,4.337846
76109,BUENAVENTURA,VALLE DEL CAUCA,Municipio,-77.01074,3.875708
76111,GUADALAJARA DE BUGA,VALLE DEL CAUCA,Municipio,-76.298979,3.900736
76113,BUGALAGRANDE,VALLE DEL CAUCA,Municipio,-76.15682,4.208358
76122,CAICEDONIA,VALLE DEL CAUCA,Municipio,-75.830594,4.334808
76126,CALIMA,VALLE DEL CAUCA,Municipio,-76.484132,3.933664
76130,CANDELARIA,VALLE DEL CAUCA,Municipio,-76.346519,3.408354
76147,CARTAGO,VALLE DEL CAUCA,Municipio,-75.924374,4.742192
76233,DAGUA,VALLE DEL CAUCA,Municipio,-76.68886,3.657318
76243,EL ÁGUILA,VALLE DEL CAUCA,Municipio,-76.042779,4.906062
76246,EL CAIRO,VALLE DEL CAUCA,Municipio,-76.221611,4.760874
76248,EL CERRITO,VALLE DEL CAUCA,Municipio,-76.311972,3.684229
76250,EL DOVIO,VALLE DEL CAUCA,Municipio,-76.237084,4.510452
76275,FLORIDA,VALLE DEL CAUCA,Municipio,-76.234199,3.324118
76306,GINEBRA,VALLE DEL CAUCA,Municipio,-76.268068,3.724181
76318,GUACARÍ,VALLE DEL CAUCA,Municipio,-76.330911,3.761815
76364,JAMUNDÍ,VALLE DEL CAUCA,Municipio,-76.538472,3.258751
76377,LA CUMBRE,VALLE DEL CAUCA,Municipio,-76.56805,3.649268
76400,LA UNIÓN,VALLE DEL CAUCA,Municipio,-76.099661,4.533869
76403,LA VICTORIA,VALLE DEL CAUCA,Municipio,-76.036529,4.523603
76497,OBANDO,VALLE DEL CAUCA,Municipio,-75.974709,4.575712
76520,PALMIRA,VALLE DEL CAUCA,Municipio,-76.298846,3.531544
76563,PRADERA,VALLE DEL CAUCA,Municipio,-76.241799,3.419793
76606,RESTREPO,VALLE DEL CAUCA,Municipio,-76.523329,3.821351
76616,RIOFRÍO,VALLE DEL CAUCA,Municipio,-76.288313,4.156908
76622,ROLDANILLO,VALLE DEL CAUCA,Municipio,-76.152277,4.413601
76670,SAN PEDRO,VALLE DEL CAUCA,Municipio,-76.228692,3.995073
76736,SEVILLA,VALLE DEL CAUCA,Municipio,-75.931629,4.270714
76823,TORO,VALLE DEL CAUCA,Municipio,-76.076859,4.608085
76828,TRUJILLO,VALLE DEL CAUCA,Municipio,-76.318818,4.212037
76834,TULUÁ,VALLE DEL CAUCA,Municipio,-76.197731,4.085399
76845,ULLOA,VALLE DEL CAUCA,Municipio,-75.737808,4.703623
76863,VERSALLES,VALLE DEL CAUCA,Municipio,-76.199203,4.575019
76869,VIJES,VALLE DEL CAUCA,Municipio,-76.441804,3.698686
76890,YOTOCO,VALLE DEL CAUCA,Municipio,-76.382698,3.861241
76892,YUMBO,VALLE DEL CAUCA,Municipio,-76.499893,3.540097
76895,ZARZAL,VALLE DEL CAUCA,Municipio,-76.070795,4.392658
81001,ARAUCA,ARAUCA,Municipio,-70.747408,7.072726
81065,ARAUQUITA,ARAUCA,Municipio,-71.426733,7.02702
81220,CRAVO NORTE,ARAUCA,Municipio,-70.204286,6.303913
81300,FORTUL,ARAUCA,Municipio,-71.76877,6.796695
81591,PUERTO RONDÓN,ARAUCA,Municipio,-71.10339,6.281461
81736,SARAVENA,ARAUCA,Municipio,-71.872812,6.953926
81794,TAME,ARAUCA,Municipio,-71.754427,6.453324
85001,YOPAL,CASANARE,Municipio,-72.396132,5.327102
85010,AGUAZUL,CASANARE,Municipio,-72.546838,5.172641
85015,CHÁMEZA,CASANARE,Municipio,-72.87016,5.214527
85125,HATO COROZAL,CASANARE,Municipio,-71.764213,6.154099
85136,LA SALINA,CASANARE,Municipio,-72.334978,6.127762
85139,MANÍ,CASANARE,Municipio,-72.281384,4.81681
85162,MONTERREY,CASANARE,Municipio,-72.894065,4.877017
85225,NUNCHÍA,CASANARE,Municipio,-72.195323,5.636474
85230,OROCUÉ,CASANARE,Municipio,-71.338533,4.790258
85250,PAZ DE ARIPORO,CASANARE,Municipio,-71.890348,5.879827
85263,PORE,CASANARE,Municipio,-71.99286,5.72773
85279,RECETOR,CASANARE,Municipio,-72.760991,5.229181
85300,SABANALARGA,CASANARE,Municipio,-73.038696,4.854787
85315,SÁCAMA,CASANARE,Municipio,-72.250157,6.096738
85325,SAN LUIS DE PALENQUE,CASANARE,Municipio,-71.732198,5.422397
85400,TÁMARA,CASANARE,Municipio,-72.16165,5.829543
85410,TAURAMENA,CASANARE,Municipio,-72.74662,5.018977
85430,TRINIDAD,CASANARE,Municipio,-71.662812,5.412178
85440,VILLANUEVA,CASANARE,Municipio,-72.927797,4.61035
86001,MOCOA,PUTUMAYO,Municipio,-76.654238,1.151172
86219,COLÓN,PUTUMAYO,Municipio,-76.972566,1.190133
86320,ORITO,PUTUMAYO,Municipio,-76.873276,0.663593
86568,PUERTO ASÍS,PUTUMAYO,Municipio,-76.496887,0.505627
86569,PUERTO CAICEDO,PUTUMAYO,Municipio,-76.606118,0.687784
86571,PUERTO GUZMÁN,PUTUMAYO,Municipio,-76.407663,0.962854
86573,PUERTO LEGUÍZAMO,PUTUMAYO,Municipio,-74.781842,-0.192318
86749,SIBUNDOY,PUTUMAYO,Municipio,-76.917814,1.20026
86755,SAN FRANCISCO,PUTUMAYO,Municipio,-76.879283,1.174194
86757,SAN MIGUEL,PUTUMAYO,Municipio,-76.91217,0.34346
86760,SANTIAGO,PUTUMAYO,Municipio,-77.002641,1.147076
86865,VALLE DEL GUAMUEZ,PUTUMAYO,Municipio,-76.906751,0.423506
86885,VILLAGARZÓN,PUTUMAYO,Municipio,-76.61721,1.028821
88001,SAN ANDRÉS,"ARCHIPIÉLAGO DE SAN ANDRÉS, PROVIDENCIA Y SANTA CATALINA",Isla,-81.707181,12.578108
88564,PROVIDENCIA,"ARCHIPIÉLAGO DE SAN ANDRÉS, PROVIDENCIA Y SANTA CATALINA",Municipio,-81.368386,13.373185
91001,LETICIA,AMAZONAS,Municipio,-69.941721,-4.19895
91263,EL ENCANTO,AMAZONAS,Área no municipalizada,-73.207114,-1.74806
91405,LA CHORRERA,AMAZONAS,Área no municipalizada,-72.791889,-1.442617
91407,LA PEDRERA,AMAZONAS,Área no municipalizada,-69.585499,-1.320301
91430,LA VICTORIA,AMAZONAS,Área no municipalizada,-71.223208,0.054936
91460,MIRITÍ - PARANÁ,AMAZONAS,Área no municipalizada,-70.98893,-0.888833
91530,PUERTO ALEGRÍA,AMAZONAS,Área no municipalizada,-74.014461,-1.005674
91536,PUERTO ARICA,AMAZONAS,Área no municipalizada,-71.752186,-2.147039
91540,PUERTO NARIÑO,AMAZONAS,Municipio,-70.364937,-3.779934
91669,PUERTO SANTANDER,AMAZONAS,Área no municipalizada,-72.384213,-0.621184
91798,TARAPACÁ,AMAZONAS,Área no municipalizada,-69.741745,-2.890126
94001,INÍRIDA,GUAINÍA,Municipio,-67.918613,3.866764
94343,BARRANCOMINAS,GUAINÍA,Municipio,-69.814066,3.494178
94883,SAN FELIPE,GUAINÍA,Área no municipalizada,-67.067848,1.912495
94884,PUERTO COLOMBIA,GUAINÍA,Área no municipalizada,-67.566774,2.726438
94885,LA GUADALUPE,GUAINÍA,Área no municipalizada,-66.963692,1.632464
94886,CACAHUAL,GUAINÍA,Área no municipalizada,-67.413312,3.52617
94887,PANA PANA,GUAINÍA,Área no municipalizada,-69.0099,1.865668
94888,MORICHAL,GUAINÍA,Área no municipalizada,-69.919404,2.265132
95001,SAN JOSÉ DEL GUAVIARE,GUAVIARE,Municipio,-72.639254,2.565932
95015,CALAMAR,GUAVIARE,Municipio,-72.655197,1.960982
95025,EL RETORNO,GUAVIARE,Municipio,-72.627304,2.330164
95200,MIRAFLORES,GUAVIARE,Municipio,-71.950416,1.337539
97001,MITÚ,VAUPÉS,Municipio,-70.232641,1.253151
97161,CARURÚ,VAUPÉS,Municipio,-71.30221,1.016116
97511,PACOA,VAUPÉS,Área no municipalizada,-71.004339,0.020698
97666,TARAIRA,VAUPÉS,Municipio,-69.635497,-0.564984
97777,PAPUNAHUA,VAUPÉS,Área no municipalizada,-70.76091,1.908124
97889,YAVARATÉ,VAUPÉS,Área no municipalizada,-69.203337,0.609142
99001,PUERTO CARREÑO,VICHADA,Municipio,-67.487095,6.186636
99524,LA PRIMAVERA,VICHADA,Municipio,-70.410515,5.486309
99624,SANTA ROSALÍA,VICHADA,Municipio,-70.859499,5.136393
99773,CUMARIBO,VICHADA,Municipio,-69.795533,4.446352
